name;lat;lon
1;55.76536339999999;37.6272106
AZIMUT Сити Отель Комсити Москва;55.635920299999995;37.430805
Action 44;55.76942350000001;37.5593484
Alstom Grid;55.79021060000001;37.7077123
Davis;55.8045144;37.59030429999999
Faberlic;55.585282;37.62148919999999
Goodman;55.80498980000001;37.5899228
Hi-Tec House;55.81878799999999;37.521314
Meliora place;55.773435199999994;37.63297219999999
Neva Towers (Башня 1);55.75110289999999;37.5337174
RRG;55.7288034;37.65926329999999
Royal clinic;55.6844019;37.601138
А1;55.6331646;37.43150249999999
А2;55.633416800000006;37.432851199999995
А4;55.63488360000001;37.4316981
А5;55.63462439999999;37.4301577
АО «Атомэнергопроект»;55.7743553;37.681359799999996
АОСН «Ястреб» ЦСН СР МВД России;55.74674869999999;37.7276618
АРТ-Информ Экспресс;55.7105756;37.6258984
Автобаза МОЭСК;55.704960200000016;37.5871272
Административно-бытовой корпус;55.7953637;37.38283439999999
"Административно-деловой центр ""Преображенский""";55.788920499999996;37.7080154
Административное здание;55.5818395;37.4704693
Администрация;55.793662399999995;37.673842199999996
Администрация 7АП;55.85280900000001;37.5621404
Администрация Президента Российской Федерации;55.75547790000001;37.63019529999999
Академия детского мюзикла;55.762732;37.6463044
Акадо Телеком (ОАО 'Комкор');55.6037393;37.6079743
Андроновка;55.7442932;37.738972
Арбитражный суд г. Москвы;55.707555;37.6236722
Архив РАН;55.6769502;37.5723016
Атом-охрана;55.79041089999999;37.4800676
АтомСтройЭкспорт;55.809345;37.5816766
Атриум;55.63374199999999;37.4319519
"БЦ ""Банный 9""";55.7861824;37.63918759999999
"БЦ ""На Шумкина""";55.7872269;37.670836599999994
Балчуг-плаза;55.746789799999995;37.6266199
Башня 2000;55.7463013;37.5461728
Башня B;55.7367421;37.533601899999994
Башня C;55.7364472;37.5325768
Башня D;55.7362023;37.5316545
Башня А;55.7372789;37.53448289999999
Башня на Набережной - Блок А;55.74665939999999;37.5373757
Башня на Набережной - Блок В;55.74645509999999;37.5363494
Башня на Набережной - Блок С;55.7470539;37.53663079999999
Бизнес-центр;55.8341885;37.507470899999994
"Бизнес-центр ""10""";55.7322287;37.73185999999999
"Бизнес-центр ""AFI2B""";55.774930699999985;37.5847375
"Бизнес-центр ""Cabinet Lounge""";55.758336099999994;37.626171500000005
"Бизнес-центр ""Center-T""";55.707629399999995;37.6253415
"Бизнес-центр ""Clever""";55.704792299999994;37.5978193
"Бизнес-центр ""Domino""";55.731542499999996;37.6249673
"Бизнес-центр ""Favorit""";55.6738693;37.6195671
"Бизнес-центр ""Gorky Park Tower""";55.7208344;37.6007046
"Бизнес-центр ""Kesko House""";55.73847810000001;37.598581599999996
"Бизнес-центр ""Mosenka Plaza 3""";55.77325559999999;37.6204494
"Бизнес-центр ""YE'S""";55.84229929999999;37.37252219999999
"Бизнес-центр ""Z-plaza""";55.8028365;37.58375519999999
"Бизнес-центр ""Авиатор""";55.79366699999999;37.5451209
"Бизнес-центр ""Аврора""";55.73651149999999;37.64065449999999
"Бизнес-центр ""Академик""";55.674534200000004;37.50337939999999
"Бизнес-центр ""Альфа Арбат Центр""";55.7516976;37.5992605
"Бизнес-центр ""Басманный""";55.7651326;37.6616375
"Бизнес-центр ""Бибирево""";55.88175840000001;37.60178479999999
"Бизнес-центр ""Буракова, 29""";55.757027599999994;37.7354471
"Бизнес-центр ""Бутик-офис""";55.737809899999995;37.602152399999994
"Бизнес-центр ""Бэлрайс""";55.8205019;37.78204259999999
"Бизнес-центр ""Вишневый Сад""";55.7724798;37.6306998
"Бизнес-центр ""Воздвиженка центр""";55.75332039999999;37.6063333
"Бизнес-центр ""Волконский""";55.77537349999999;37.6168486
"Бизнес-центр ""Воробьевский""";55.71551399999999;37.52265
"Бизнес-центр ""Головино Плаза""";55.8433013;37.5260554
"Бизнес-центр ""Голубая жемчужина""";55.740003800000004;37.6154166
"Бизнес-центр ""Депо""";55.74172120000001;37.6006833
"Бизнес-центр ""Диагональ Хаус""";55.80391939999999;37.5821838
"Бизнес-центр ""Дмитровка, 23""";55.7659718;37.6093513
"Бизнес-центр ""Дом Чайковского""";55.7415922;37.596305099999995
"Бизнес-центр ""Европа""";55.7828314;37.598510299999994
"Бизнес-центр ""Золотое кольцо""";55.7070622;37.6888364
"Бизнес-центр ""Инженер""";55.77066560000001;37.6249357
"Бизнес-центр ""Интеграл""";55.75259849999999;37.702334799999996
"Бизнес-центр ""Каланчёвская плаза""";55.77759290000001;37.64946669999999
"Бизнес-центр ""Калитники""";55.72776029999999;37.6876802
"Бизнес-центр ""Красноворотский""";55.770370299999996;37.6542707
"Бизнес-центр ""Красный Богатырь""";55.814647099999995;37.6937054
"Бизнес-центр ""Крылатский""";55.763630000000006;37.40589829999999
"Бизнес-центр ""Крымский Вал""";55.72927060000001;37.6091697
"Бизнес-центр ""Лесная 43""";55.78066390000001;37.59063149999999
"Бизнес-центр ""Лотос""";55.6642382;37.59868289999999
"Бизнес-центр ""М-Стиль Офис""";55.71960289999999;37.6296233
"Бизнес-центр ""Маяковская плаза""";55.772228000000005;37.60061279999999
"Бизнес-центр ""Меридио""";55.62214259999999;37.621314
"Бизнес-центр ""Миллениум Хаус""";55.768362399999994;37.6248941
"Бизнес-центр ""Морозов""";55.7341361;37.5879565
"Бизнес-центр ""Мосаларко Плаза Один""";55.7390399;37.6586935
"Бизнес-центр ""На Газетном""";55.75895499999999;37.6105625
"Бизнес-центр ""На Звенигородке""";55.7613472;37.5516415
"Бизнес-центр ""На Масловке""";55.7915049;37.5811348
"Бизнес-центр ""На Ордынке""";55.7351616;37.6239962
"Бизнес-центр ""На Спартаковской""";55.7757803;37.6776468
"Бизнес-центр ""На Трубной""";55.7712619;37.62555549999999
"Бизнес-центр ""На Харитоньевском""";55.76593400000001;37.65051789999999
"Бизнес-центр ""Нагатинский""";55.6830102;37.66134799999999
"Бизнес-центр ""Новосущёвский""";55.79204769999998;37.60344829999999
"Бизнес-центр ""Оазис""";55.72843229999999;37.62023419999999
"Бизнес-центр ""Огородный""";55.81862259999999;37.59504040000001
"Бизнес-центр ""Омега-2"" корп. B";55.7102372;37.65282489999999
"Бизнес-центр ""Омега-2"" корп. C";55.7100817;37.6555477
"Бизнес-центр ""Остоженка 10""";55.7425962;37.599867
"Бизнес-центр ""Пальмира""";55.7783344;37.69399380000001
"Бизнес-центр ""Парус""";55.7751578;37.5867298
"Бизнес-центр ""Паскаль""";55.6944893;37.66205269999999
"Бизнес-центр ""Пересвет""";55.722946300000004;37.6702844
"Бизнес-центр ""Плотников""";55.7466599;37.588106399999994
"Бизнес-центр ""Принт""";55.837996999999994;37.45373029999999
"Бизнес-центр ""Путейский тупик, 6""";55.761253700000005;37.6597877
"Бизнес-центр ""РТС""";55.7331602;37.697427499999996
"Бизнес-центр ""Селезнёвская, 11""";55.78123879999999;37.603825
"Бизнес-центр ""Серпуховской двор""";55.70597119999999;37.602523299999994
"Бизнес-центр ""Сибирь""";55.76232499999999;37.569897999999995
"Бизнес-центр ""Сильвер Стоун""";55.846466899999996;37.6554977
"Бизнес-центр ""Слободской""";55.712493200000004;37.654476499999994
"Бизнес-центр ""Сорус Холл""";55.81831030000001;37.7698616
"Бизнес-центр ""Таволга""";55.8303827;37.5178405
"Бизнес-центр ""Троицкий""";55.776778400000005;37.6215173
"Бизнес-центр ""Тропикано""";55.7625379;37.5702676
"Бизнес-центр ""Тушино""";55.83416259999999;37.410745999999996
"Бизнес-центр ""Улей-Плаза""";55.7844271;37.709731999999995
"Бизнес-центр ""Усадьба Суворовых""";55.76795709999999;37.644218
"Бизнес-центр ""Ферро-плаза""";55.67965060000001;37.56700099999999
"Бизнес-центр ""Флагман""";55.839831999999994;37.4894583
"Бизнес-центр ""Чайка Плаза 6""";55.739289500000005;37.5978021
"Бизнес-центр ""Чайка Плаза""";55.7678372;37.632209499999995
"Бизнес-центр ""Четыре ветра""";55.774574;37.587118
"Бизнес-центр ""Экоофис""";55.7593059;37.6103849
"Бизнес-центр ""Энерджи Хаус""";55.747764800000006;37.633072899999995
"Бизнес-центр ""Якиманка""";55.737836800000004;37.61564119999999
"Бизнес-центр ""Яузская, 5""";55.7495354;37.645105799999996
Бизнес-центр Dominion Tower;55.7225359;37.6682682
Бизнес-центр Lighthouse;55.730633;37.6282446
Бизнес-центр Orbital;55.76294510000001;37.523311099999994
Бизнес-центр «The Yard»;55.7662758;37.526826
Бизнес-центр «Аврора»;55.7353426;37.6421294
Бизнес-центр «Александр-Хаус»;55.7412298;37.61428949999999
Бизнес-центр «Алтуфьевский»;55.8761852;37.588836
Бизнес-центр «Бульварное Кольцо»;55.76201749999999;37.64554879999999
Бизнес-центр «Газ Филд»;55.6576621;37.529402299999994
Бизнес-центр «Даев Плаза»;55.7693806;37.638418
Бизнес-центр «Дмитровский»;55.8042505;37.5834314
Бизнес-центр «Каланчёвский»;55.77228709999999;37.6516242
Бизнес-центр «Лиман»;55.66958399999999;37.5466502
Бизнес-центр «Метрополис» (корпус 2);55.8216315;37.4985827
Бизнес-центр «Мосэнка 5»;55.746750299999995;37.663944599999994
Бизнес-центр «Прео 8»;55.7948161;37.712781199999995
Бизнес-центр «Симоновский Плаза»;55.710216300000006;37.6521213
Бизнес-центр «Союз деловых людей»;55.8086449;37.77197639999999
Бизнес-центр «Станция»;55.77995859999999;37.687953199999995
Бизнес-центр «Тверской»;55.7647864;37.60765789999999
Бизнес-центр «Токмаков, 5 с1»;55.7683404;37.6701987
Бизнес-центр «Юникон»;55.754626200000004;37.756709799999996
Бизнес-центр «Яковоапостольский»;55.75887170000001;37.6563388
Бизнес-центр Валлекс;55.6607446;37.5380526
Бизнес-центр Диапазон;55.8046159;37.4903763
Бизнес.Техноград;55.839511099999996;37.62154339999999
Бородино Плаза;55.7844577;37.6734077
Бронная плаза;55.76541099999999;37.59090110000001
Бюро ЮНЕСКО в Москве;55.74174639999999;37.58730630000001
Бюро пропусков;55.579506599999995;37.469780699999994
ВНИИ Эталон;55.7827312;37.584052899999996
ВНИИстройдормаш;55.8245783;37.429257199999995
Внешэкономбанк;55.7721381;37.644924
Всероссийский научно-исследовательский институт минерального сырья им. Н.М.Федоровского;55.738305999999994;37.62122109999999
Всероссийский научно-исследовательский институт технической эстетики;55.8300884;37.6214314
Всероссийский научно-исследовстельский институт труда;55.75723219999999;37.6544181
Вторая проходная;55.70345099999999;37.6419537
ГАУ Медиацентр;55.7994288;37.7056579
ГЛОНАСС;55.7678692;37.679949799999996
ГТРК Культура;55.75925229999999;37.5884305
"ГУ ""ИПГ""";55.833260800000005;37.665797
ГУ МВД России по Московской области;55.75635570000001;37.6089969
"ГУП ""Московский метрополитен""";55.78174740000001;37.6326162
ГУП Автокомбинат санитарного транспорта «Мосавтосантранс» – автобаза № 2;55.6157633;37.609784499999996
ГУП Мосгортранс;55.74749329999999;37.6340396
ГУП г. Москвы ДЕЗ района Чертаново Центральное;55.6189697;37.6032623
Гарант;55.7085801;37.5218508
Геологический институт РАН;55.7389143;37.6213051
Гиперкуб;55.6965732;37.3559128
Главное управление МВД РФ по Центральному федеральному округу;55.8119124;37.5905597
Главный вычислительный центр РЖД;55.7701616;37.6523896
Город Столиц - Москва;55.7475642;37.53879559999999
Город Столиц - Санкт-Петербург;55.747344700000006;37.5385673
Городская усадьба Долгоруких;55.75822479999999;37.5869251
Государственная Дума;55.757873200000006;37.61574259999999
Государственная дума (второе здание);55.7583891;37.6150017
Государственный дом радиовещания и звукозаписи;55.75943279999999;37.58751869999999
Государственный институт искусствознания;55.7650062;37.609401399999996
Гранд Сетунь Плаза;55.7263396;37.399433499999994
Группа компаний ПИК;55.76033029999999;37.579905399999994
ДЕЗ Ивановское;55.7621254;37.833102399999994
"Деловой центр ""Денисовский 26""";55.766737000000006;37.6764773
"Деловой центр ""Калибр""";55.80938079999999;37.6284224
"Деловой центр ""Кузнецкий мост 17""";55.76246780000001;37.62479429999999
"Деловой центр ""Ситидел""";55.7615984;37.6586207
"Деловой центр ""Чайка""";55.782552200000005;37.6298631
"Деловой центр ""на Цветном бульваре""";55.7713304;37.6227264
Деловой центр «Гелиос Сити»;55.75015;37.77040949999999
Деловой центр «Лубянский»;55.75659559999998;37.632813299999995
Дендрарий Ботанического сада МГУ;55.7065704;37.5279466
Департамент жилищной политики и жилищного фонда города Москвы;55.75676270000001;37.6066875
Департамент здравоохранения г. Москвы;55.7761832;37.608898999999994
Диана;55.476561499999995;37.3018419
Диасофт;55.7983274;37.6061044
Дирекция железнодорожных вокзалов;55.7378168;37.6960538
Дирекция заказчика жилищно-комунального хозяйства и благоустройства Северо-западного административного округа;55.854170599999996;37.4254734
"Диспетчерская к/ст ""138 квартал Выхино""";55.6930819;37.816976399999994
Диспетчерский пункт ГКУ ЦОДД;55.878571699999995;37.72143890000001
Диспетчерский пункт конечной автобусной станции «Абрамцевская ул.»;55.90772389999999;37.57454349999999
Дом 15;55.7743021;37.62603299999999
Дом Г. А. Тарасова;55.762387499999996;37.590932499999994
Дом Правительства Российской Федерации;55.7550273;37.5732785
Дом Прошина;55.7738967;37.5901993
Дом Румянцева;55.7525033;37.6434167
Дом Хлебниковой;55.7698317;37.6556078
Дом на Предтеченской;55.7602792;37.5664857
Дом немецкой экономики;55.734814;37.62238369999999
Дом предпринимателя;55.4768772;37.3021023
Дом.РФ;55.7322523;37.628648299999995
Дорожная инспекция ОАТИ;55.7387198;37.6643219
Доходный дом Солодовникова;55.7892703;37.632604699999995
Европа;55.727863000000006;37.613792499999995
Единый диспетчерский центр Московского метрополитена;55.865060400000004;37.5494391
Жилищник района Северное Тушино;55.8539584;37.4369839
Жилые палаты Хамовного двора;55.73255100000001;37.589267
"ЗАО ""Ремстройтрест""";55.6591643;37.520265099999996
Западное окружное управление образования;55.73836229999999;37.5401268
"Здание ООО ""Октод""";55.78048950000001;37.48888039999999
"Здание конечной станции ""Уссурийская""";55.821953900000004;37.8237203
ИТАР-ТАСС;55.7593158;37.6008361
Издательство Наука;55.64936900000001;37.530386699999994
Ингосстрах;55.743421;37.6270904
Инспекция ФНС России № 25;55.70581980000001;37.6643525
Инспекция налоговой службы № 17 по г. Москве;55.8046706;37.645258999999996
"Институт ""Каналстройпроект""";55.6790426;37.5722768
Институт Европы РАН;55.756676299999995;37.6101688
Институт Св. Фомы;55.7758826;37.68976750000001
Институт Спектроскопии;55.46509040000001;37.2975867
Институт географии РАН;55.7348044;37.6149202
Институт геологии рудных месторождений, петрографии, минералогии и геохимии РАН;55.737490400000006;37.6210911
Институт космических исследований Российской академии наук;55.655115699999996;37.533578799999994
Институт молекулярной биологии им. В. А. Энгельгардта;55.69864259999999;37.572037400000006
Институт нефтехимического синтеза им. А. В. Топчиева РАН;55.7141055;37.590842
Институт проблем безопасного развития атомной энергетики;55.7041241;37.6210696
Институт проблем комплексного освоения недр;55.76477409999999;37.7106636
Институт проблем экологии и эволюции им. А. Н. Северцова РАН;55.711889;37.5889203
Институт радиотехники и электроники им. В. А. Котельникова РАН;55.7561603;37.6113491
Институт русского языка РАН;55.7451956;37.6029327
Институт точной механики и вычислительной техники им. С. А. Лебедева;55.6989363;37.5662262
Институт физики атмосферы им. А.М. Обухова РАН;55.73910910000001;37.6233565
Институт энергетических проблем химической физики РАН им. В. Л. Тальрозе;55.70518569999999;37.56918619999999
Интеграл;55.71928459999999;37.4322503
Информационно-вычислительный центр МЖД;55.7774042;37.66296129999999
Информационное телеграфное агентство России «ТАСС»;55.7578901;37.5997015
КПП;55.69799009999999;37.6103234
Капитал Плаза;55.7791744;37.587146499999996
Карачарово;55.730446400000005;37.7368602
"Комплекс ""Башня на набережной""";55.7467501;37.53676239999999
Консульский отдел посольства Ирана;55.7556532;37.6490741
Корпус E;55.7362983;37.5329764
Краснодарский домик;55.7967775;37.6759875
Креди Агриколь;55.7595436;37.631992399999994
Кристалл Плаза;55.746838399999994;37.6290998
Лабораторный корпус;55.825469;37.4602899
Лидер-Групп;55.76780709999999;37.556532999999995
Лихоборское подразделение Московского УЦПК ОАО «РЖД»;55.8408808;37.5192024
Любимый носик;55.70670419999999;37.671635599999995
МИД России центральное здание;55.746177200000005;37.5844084
МОЭСК;55.8145283;37.7949938
МОЭСК - Центральные электрические сети;55.66091350000001;37.6308689
МТС;55.76697750000001;37.6187687
МФИ софт;55.728463299999994;37.5854568
МЧС России;55.759533999999995;37.6220639
Медиацентр телекомпании НТВ;55.8176577;37.6187421
Межрайонный отдел лицензионно-разрешительной работы УВД;55.731361500000006;37.58028319999999
Метеорологическая обсерватория МГУ;55.7069835;37.5219341
Министерство Российской Федерации по развитию Дальнего Востока и Арктики;55.745785100000006;37.67234609999999
Министерство здравоохранения Российской Федерации;55.76821449999999;37.6308245
Министерство культуры РФ;55.7623571;37.6054451
Министерство образования и науки России;55.7602499;37.6091118
Министерство природных ресурсов и экологии Российской Федерации;55.76184369999999;37.5800005
Министерство транспорта Российской Федерации;55.759838;37.6230807
Миусский телефонный узел;55.7597393;37.5713295
Многофункциональный центр предоставления государственных и муниципальных услуг района Отрадное;55.8625416;37.589859999999994
Морозовская Детская Городская Клиническая Больница;55.741076099999994;37.602074
Мосводоканал;55.6819755;37.7503904
Мосводоканал, Производственно-Эксплуатационное управление Канализационной Сети;55.6061545;37.508898599999995
Мосводосток;55.7438227;37.531852
Мосгоргеотрест;55.863373900000006;37.48331939999999
Мосгоризбирком;55.7565086;37.6119528
Мосгорстат;55.75548080000001;37.6472382
Московская биржа;55.7553367;37.6063919
Московская городская военная прокуратура;55.78134789999999;37.538692399999995
Московская дирекция по управлению терминально-складским комплексом;55.7468619;37.690057599999996
Московская дирекция по энергообеспечению;55.78420439999999;37.6434347
Московский Радиозавод;55.7374915;37.63546629999999
Московский кредитный банк;55.7681521;37.6327154
Московский почтамт;55.76398559999999;37.6371544
"Московское бюро информационного агенства ""Синьхуа""";55.7361667;37.68054639999999
Московское территориальное управление Октябрьской железной дороги;55.7833697;37.6525465
Моссахар;55.68051229999999;37.4346365
Мосэнергострой;55.71357319999999;37.6171992
"НИИ ""Аэропроект""";55.81560100000001;37.498954
НИИ Автоматической аппаратуры им. академика В.С. Семинихина;55.6595311;37.541207699999994
НИИ нормальной физиологии им. П. К. Анохина;55.755953;37.6102817
"НИИ эпидемиологии и микробиологии им. Г.Н. Габричевского """;55.8374871;37.48942389999999
НИиПИ градостроительства;55.784908;37.6317445
НПК Герметика;55.8170817;37.7545857
НПП САПФИР;55.783323800000005;37.7343255
Научно-исследовательский и проектно-конструкторский институт информатизации, автоматизации и связи на железнодорожном транспорте;55.7372668;37.69569119999999
Научное издательство «Большая Российская энциклопедия»;55.756977299999996;37.6469309
Национальный НИИ общественного здоровья им. Н.А. Семашко;55.753345;37.6526436
Никитская;55.7549098;37.607123
Новый корпус МИД России;55.74474129999999;37.585749799999995
"ОАО ""МОЭК"" филиал № 7 ""Юго-Западный""";55.6568211;37.595878
"ОАО ""Оборонэнерго"", филиал ""Центральный""";55.80937529999999;37.69037899999999
ОАО «Радиофизика»;55.857887299999994;37.436626
ОВД ВАО;55.7970908;37.7889905
ОКО (Кристалл);55.749767299999995;37.5338752
ОКО-II;55.7504871;37.536383099999995
ОМВД России по Тимирязевскому району г. Москвы;55.84367259999999;37.5737601
"ООО ""СпецДорПроект""";55.734805200000004;37.5475959
ОУФМС района Соколиная Гора;55.766687000000005;37.7270156
"ОЦ ""Synergy development""";55.77622869999999;37.62723140000001
"ОЦ ""Технопарк"" к. 1";55.684207799999996;37.34277889999999
"ОЦ ""Технопарк"" к. 2";55.6844504;37.34167109999999
"ОЦ ""Технопарк"" к. 3";55.684694799999995;37.3405636
"ОЦ ""Технопарк"" к. 4";55.68493159999999;37.339462299999994
Общественная палата Российской Федерации;55.7788185;37.59300360000001
Олимп Клиник Марс;55.78205740000001;37.5835353
Олимпийский комитет России;55.7143992;37.5672499
Ордена Ленина трест «Мосстрой-4»;55.70617589999999;37.527360099999996
Особняк А. К. Ферстер — Михельсона;55.758854299999996;37.590317899999995
Особняк Абрикосовых;55.7372973;37.5956113
Отдел ФСБ по СВАО;55.7890443;37.6141798
Отдел социальной защиты населения района Арбат;55.75564020000001;37.58626329999999
Отдел флоры;55.7067036;37.527415
Отделение МО ГИБДД ТНРЭР № 5 ГУ МВД России по г. Москве;55.565504499999996;37.56157199999999
Отделение связи №117216;55.5668936;37.571013
Отделение связи №117628;55.5737079;37.5666005
Офис продаж;55.539561;37.454871
"Офис продаж ЖК ""Легендарный квартал""";55.84809169999999;37.6241399
Офисный центр;55.7958302;37.7321017
Офисный центр «Ян-Рон»;55.770066599999986;37.627229899999996
Очаково;55.673669499999995;37.440821
"ПАО ""МАК Вымпел""";55.85804290000001;37.4334758
ПАО «НК «Роснефть»;55.74740810000001;37.6201168
ПАО «Новатэк»;55.67289649999999;37.5206578
ПАО НК «РуссНефть»;55.7318326;37.62745329999999
Павильон;55.7636085;37.6613787
Палаты Троекуровых;55.7584813;37.6157019
Палаты тверского подворья;55.762645199999994;37.6249015
Пандора;55.70760739999999;37.65019209999999
Партнер;55.712432899999996;37.420252399999995
Пенсионный фонд Российской Федерации;55.71774190000001;37.6201497
Пинскдрев;55.7113489;37.6567961
Планета Железяка;55.897405;37.6069182
Пожарная часть № 14;55.7704633;37.6646834
Пожарная часть №2 (3-?);55.8596457;37.43406099999999
Пожарная часть №33;55.7553672;37.6029251
Пожарная часть №76, Управление по ЮВАО 24 ОФПС;55.6578599;37.7390154
Посольство Азербайджана;55.76042160000001;37.6052641
Посольство Бенина;55.76950840000001;37.6090762
Посольство Бразилии;55.7583643;37.5879221
Посольство Габона;55.74483819999999;37.5871924
Посольство Гвинеи;55.739297500000006;37.589395499999995
Посольство Египта;55.7568927;37.5894806
Посольство Мьянмы;55.757143199999994;37.592939199999996
Посольство Объединённых Арабских Эмиратов, Военный атташе;55.74689359999999;37.5789551
Посольство Перу;55.7524021;37.653908699999995
Посольство Словакии;55.7719361;37.5898067
Посольство Танзании;55.757856100000005;37.5885234
Посольство Туркменистана;55.75054999999998;37.5990445
Посольство Эфиопии;55.7832521;37.6401733
Постоянное представительство Чеченской Республики при президенте РФ;55.77998079999999;37.641024
Почвенный институт им. Докучаева;55.73861409999999;37.62042749999999
Правительство Москвы;55.761245800000005;37.60863839999999
Представительство Объединённых Наций;55.7592176;37.6021157
Представительство Орловской области при Правительстве РФ;55.7456835;37.6457854
Представительство республики Башкоторстан;55.7682305;37.6720754
Префектура ЮАО;55.7059862;37.654067
Приёмник-распределитель УВД ЮВАО;55.654211999999994;37.70148929999999
Прокуратура Московской области;55.76569009999999;37.6262903
Прокуратура города Москвы;55.7325729;37.669085499999994
РЕСО Гарантия Центр выплат;55.68812930000001;37.6156939
РНКБ Банк;55.775564;37.605136
"РОДП ""Яблоко""";55.7403824;37.6288058
РЭМ;55.8158182;37.5950798
Резиденция Патриарха Московского и всея Руси;55.71106869999999;37.627850499999994
Резиденция посла Турции;55.7573125;37.59202770000001
Ремонтно-строительное управление МВД РФ;55.813249299999995;37.8102352
Ренова Лаб;55.68149210000001;37.3327311
Речная администрация Московского Бассейна;55.816240699999994;37.4479953
Родионовский;55.71077699999999;37.654171999999996
Росатом;55.7398768;37.6232771
Роскино;55.7563507;37.600925999999994
Рособрнадзор;55.772412899999985;37.6277348
Росреестр;55.7525768;37.6489789
Российская академия наук;55.71079490000001;37.5779208
Российские железные дороги;55.768524200000016;37.65194329999999
Российский государственный архив социально-политической истории;55.76251;37.61227019999999
Российский союз молодежи;55.757565199999995;37.631375899999995
Российский центр судебно-медицинской экспертизы;55.7777203;37.55149219999999
Росстандарт;55.7241178;37.60552069999999
Росстат;55.767527;37.6411165
Росэнергоатом;55.71003629999999;37.6267419
СК МПО им. И. И. Румянцева;55.7981826;37.5773238
СМ-Клиника;55.816145199999994;37.619482299999994
Саввинское архиерейское подворье;55.76057999999999;37.6118812
Северная башня;55.75183549999999;37.5326582
Сенатский дворец;55.7532351;37.61878300000001
Сибинтек;55.6996298;37.61626389999999
Симонов-плаза;55.71119120000001;37.65283029999999
Следственный комитет Российской Федерации;55.7634768;37.6810903
Служба финансового контроля Департамента здравоохранения города Москвы;55.822422799999984;37.5791599
Служба эксплуатации;55.756773499999994;37.543334900000005
Служба энергохозяйства ГУП Мосгортранс;55.7753187;37.499559
Смоленский пассаж 2;55.7482373;37.58137059999999
Специальное конструкторское бюро сго;55.708467;37.6080913
Страховой Дом ВСК;55.7568105;37.4477564
Судебный участок № 79 Северного района;55.9425423;37.5521489
Сургутнефтегаз;55.7679046;37.64286179999999
Счётная палата Российской Федерации;55.73817789999999;37.5836607
"Творческая мастерская З.К. Церетели ""Детская школа искусств""";55.74134660000001;37.62789899999999
Телецентр «Останкино» АСК-1;55.822694199999994;37.606286
Территориальный центр социального обслуживания Арбат;55.755510099999995;37.586850899999995
Технодинамика;55.736533599999994;37.6362783
Троицкая электросеть;55.47609219999999;37.301639
УВД по ЦАО;55.735107000000006;37.6916754
УВД по ЮЗАО;55.6785587;37.5715306
Угрешский;55.7152479;37.6962504
Узел связи;55.749976800000006;37.7754904
Управа р-на Солнцево г. Москвы;55.650644199999995;37.39444569999999
"Управа района ""Гольяново""";55.8294745;37.81989459999999
Управа района Выхино-Жулебино;55.713348199999984;37.80500289999999
Управа района Южное Медведково;55.8756367;37.6197047
Управление ГИБДД Московской области;55.783921299999996;37.6364465
Управление образования Северо-Восточного административного округа города Москвы;55.812543;37.59184979999999
Управление по контролю за оборотом наркотиков Главного управления МВД России по г. Москве;55.6544416;37.599171
Управление собственной безопасности Москвы;55.76234039999999;37.582328
Управление социальной защиты населения района Ховрино;55.85947039999999;37.505419499999995
Усадьба Давыдова;55.74166640000001;37.594528
Усадьба Салтыковых - Чертковых;55.760553099999996;37.631055
Усадьба Самсонова;55.7394018;37.5887806
Усадьба Шаховского-Краузе-Осиповых;55.75330760000001;37.602669
ФГБУ «ЦУРЭН»;55.7552627;37.6068492
"ФГУП ""Госземкадастрсъемка""-ВИСХАГИ";55.7291036;37.7201221
"ФГУП ""Росатомстрой""";55.7445733;37.6209687
ФГУП МИА «Россия сегодня»;55.73768050000001;37.5904924
Федеральная служба государственной регистрации, кадастра и картографии;55.763486400000005;37.6396015
Федеральная служба по надзору в сфере образования и науки;55.7193994;37.61005099999999
Федеральное агентство железнодорожного транспорта;55.7656813;37.658510299999996
Федеральное агентство по государственным резервам;55.756693;37.62636609999999
Федеральное агентство по рыболовству;55.7660637;37.627338599999995
Федеральное казначейство;55.7552578;37.6275708
"Филиал ФГУП ""ЦЭНКИ"" - НИИСК им. В.П. Бармина";55.664737300000006;37.4880373
Финансово-казначейское управление ЮАО;55.7108755;37.6593848
Фольксваген-Кунцево;55.72270480000001;37.3831649
Фосагро;55.6972688;37.56348789999999
Центр информационных технологий Центрального банка РФ;55.8508802;37.44834269999999
Центр перспективных разработок Московского транспорта;55.7285473;37.4408559
Центр промышленности Республики Болгария;55.60983559999999;37.5762533
Центр социального обслуживания «Арбат». Филиал «Пресненский»;55.75958229999999;37.6017102
Центральная избирательная комиссия Российской Федерации;55.757533;37.626582899999995
Центральное территориальное управление имущественных отношений Минобороны РФ;55.7767235;37.539635499999996
Центральный дом литераторов;55.7579478;37.587769599999994
Центральный научно-исследовательский институт эпидемиологии;55.7432709;37.640955
Центральный российский дом знаний;55.774491899999994;37.68233889999999
Черёмушкинский районный суд;55.6784655;37.57386129999999
Эдтроникторг;55.808382099999996;37.518531
Экспертно-криминалистический центр ГУ МВД России по г. Москве;55.7704824;37.6178023
ЭлитКрокусГрупп;55.5765379;37.622921
Энви Моторс;55.6777725;37.8546762
Ямское Плаза;55.7853457;37.5846572
Яхтенный бизнес-центр;55.8329611;37.4822969
апарт-комплекс «Metropolis Loft»;55.763080099999996;37.63685029999999
"корпус ""Вода""";55.77056639999999;37.4241019
"корпус ""Воздух""";55.7705907;37.4213551
"корпус ""Земля""";55.77033649999999;37.4200379
"корпус ""Огонь""";55.7706764;37.422722199999995
корпус 5;55.80999130000001;37.50622189999999
корпус Б;55.8101038;37.5090519
"офисный центр ""На Научном""";55.65574109999999;37.551913500000005
посольство Италии;55.743166800000004;37.587568700000006
посольство Палестины;55.741481099999994;37.5877187
спасстанция яхт. порта Строгино;55.79712640000001;37.41411589999999
"территория ГБУ ""Автомобильные дороги""";55.7848028;37.480829
